[
  {
    "name": "Mini mall (Triangle Shopette) ",
    "tel": "228-436-6608",
    "hours": [
      "10:00 - 20:00",
      "10:00 - 20:00",
      "10:00 - 20:00",
      "10:00 - 20:00",
      "10:00 - 20:00",
      "10:00 - 18:00",
      "10:00 - 18:00"
    ],
    "maps": "https://www.google.com/maps/place/Shopette/@30.399216,-88.9199422,19.75z/data=!4m5!3m4!1s0x0:0x635bf1a41556c1ca!8m2!3d30.3991285!4d-88.9196596"
  },
  {
    "name": "Keesler BX",
    "tel": "228-435-2524",
    "hours": [
      "09:00 - 19:00",
      "09:00 - 19:00",
      "09:00 - 19:00",
      "09:00 - 19:00",
      "09:00 - 19:00",
      "09:00 - 19:00",
      "09:00 - 17:00"
    ],
    "maps": "https://www.google.com/maps/place/Keesler+Base+Exchange/@30.4048697,-88.9077519,16.83z/data=!4m5!3m4!1s0x0:0x847f45c384bc5973!8m2!3d30.4062525!4d-88.9093427"
  },
  {
    "name": "Pass Registration and Visitor Reception Center (Visitor Control Center)(VCC)",
    "tel": "228-377-3834",
    "hours": [
      "6AM–5PM",
      "6AM–5PM",
      "6AM–5PM",
      "6AM–5PM",
      "6AM–4PM",
      "CLOSED",
      "CLOSED"
    ],
    "maps": "https://www.google.com/maps/place/Pass+Registration+and+Visitor+Reception+Center/@30.3996908,-88.9088828,17.25z/data=!4m5!3m4!1s0x889c0fc195109487:0x43f9e12536c9b1c6!8m2!3d30.3989551!4d-88.9107895?hl=en"
  },
  {
    "name": "SPC: Outprocessing: Short Sheet Briefing (at SPC)",
    "desc": "Student Processing Center",
    "hours": ["16:20", "16:20", "16:20", "N/A", "N/A", "N/A", "N/A"],
    "maps": ""
  },
  {
    "name": "Hospital:",
    "hours": ["OPEN", "OPEN", "OPEN", "OPEN", "OPEN", "OPEN", "OPEN"],
    "maps": "https://www.google.com/maps/place/Keesler+Medical+Center/@30.4119026,-88.9112996,18.75z/data=!4m9!1m2!2m1!1shospital!3m5!1s0x0:0x74cf0b1b2228cd41!8m2!3d30.412556!4d-88.9106631!15sCghob3NwaXRhbJIBEW1pbGl0YXJ5X2hvc3BpdGFs"
  },
  {
    "name": "SPC: Outprocessing: SPC",
    "desc": "Student Processing Center",
    "hours": [
      "14:00-16:00",
      "14:00-16:00",
      "14:00-16:00",
      "14:00-16:00",
      "13:00-14:45",
      "CLOSED",
      "CLOSED"
    ]
  },
  {
    "name": "SPC: Student Processing Center",
    "tel": "228-377-3468",
    "desc": "The office you will utilize for tasks such as those related to in-processing, and out-processing. This office will have your Assignment Counselor who is there to help assit you with proceeding to your next base.<br>CWS Friday hours: 09:00 - 10:30",
    "hours": [
      "14:00 - 16:00",
      "14:00 - 16:00",
      "14:00 - 16:00",
      "14:00 - 16:00",
      "14:00 - 16:00",
      "CLOSED",
      "CLOSED"
    ]
  },
  {
    "name": "Outprocessing: Travel Management Office (TMO)",
    "hours": ["16:00", "16:00", "16:00", "16:00", "N/A", "CLOSED", "CLOSED"]
  },
  {
    "name": "TMO Customer Service Office (Travel Management Office)",
    "hours": [
      "08:00 - 16:00",
      "08:00 - 16:00",
      "08:00 - 16:00",
      "08:00 - 16:00",
      "08:00 - 15:00",
      "CLOSED",
      "CLOSED"
    ]
  },
  {
    "name": "Travel Management Office (TMO) Entitlement Brief",
    "hours": ["16:00", "16:00", "16:00", "16:00"],
    "desc": "Room 221"
  },
  {
    "name": "Finance: Mini Finance - Levitow",
    "hours": [
      "07:30 - 16:45",
      "07:30 - 16:45",
      "07:30 - 16:45",
      "07:30 - 16:45",
      "CLOSED",
      "CLOSED",
      "CLOSED"
    ],
    "desc": "Closed 11:30 - 13:15"
  },
  {
    "name": "Finance: Finance Office - Sablich Center",
    "tel": "228-376-8225",
    "hours": [
      "08:00 - 15:00",
      "08:00 - 15:00",
      "08:00 - 15:00",
      "08:00 - 15:00",
      "08:00 - 15:00"
    ],
    "desc": "On up-Friday's Sablich Center is open 08:00 - 13:00"
  },
  {
    "name": "Airman & Family Readiness Center",
    "hours": ["N/A", "10:30 & 16:30", "N/A", "10:30 & 16:30"]
  },
  {
    "name": "Triangle Clinic",
    "tel": "228-376-0324",
    "desc": "Sick Call Hours:<ul><li>06:00-07:00</li></ul>Operating Hours:<ul><li>Mon, Tue, Thu, Fri: 06:00-16:00</li><li>Wed:06:00-14:00</li></ul>Shaving Waivers:<ul><li>Mon and Thu: 14:00</li></ul>",
    "hours": [
      "08:00-14:30",
      "08:00-14:30",
      "08:00-14:30",
      "08:00-14:30",
      "08:00-14:00"
    ]
  },
  {
    "name": "Security Clearance",
    "tel": "228-376-2000",
    "hours": [
      "08:00 - 17:00",
      "08:00 - 17:00",
      "08:00 - 17:00",
      "08:00 - 17:00",
      "08:00 - 17:00",
      "CLOSED",
      "CLOSED"
    ],
    "desc": "Closed for Lunch from 12:00 - 13:00. Closed on all CWS Fridays, Weekends, and Federal Holidays."
  },
  {
    "name": "Security Forces Desk (Not for emergencies)",
    "desc": "Not for emergencies. For situations not requiring immediate response.",
    "tel": "228-377-3040"
  },
  {
    "name": "SAPR",
    "desc": "Sexual Assault Prevention and Response Office.<br>Sexual Assault Prevention and Response is available at Dolan Hall to assist with any concerns - Our Teal Rope program is run by the office at Dolan Hall and has positioned trained Airmen and Guardians within our squadrons who can assist immediately if needed.",
    "tel": "228-377-8635"
  },
  {
    "name": "Chaplain (On-Call)",
    "desc": "Available 24/7. -- Chaplains are available during the Duty Day in the Fishbowl at the Levitow."
  },
  {
    "name": "Airman's Attic (3rd Floor Holbrook)",
    "desc": "The triangle thrift shop for uniform items.",
    "hours": [
      "17:30 - 19:30",
      "CLOSED",
      "17:30 - 19:30",
      "CLOSED",
      "17:30 - 19:30",
      "CLOSED",
      "CLOSED"
    ]
  },
  {
    "name": "Airman & Family Readiness Center",
    "desc": "Closest office located at the Levitow. The AFRC provides many resources to support you and your family to include services such as: <ul><li>Financial Management</li><li>Military and Family Life Counselors</li><li>Sponsorship Help for Next Base</li><li>Information on Military Loans for Special Circumstances</li><li>Information about Military Benefits</li><li>Spousal Support</li></ul>",
    "tel": "228-376-0155",
    "hours": [
      "08:00 - 17:00",
      "08:00 - 17:00",
      "08:00 - 17:00",
      "09:00 - 17:00",
      "08:00 - 16:00",
      "CLOSED",
      "CLOSED"
    ]
  },
  {
    "name": "Barbeer Shop",
    "tel": "228-376-2000",
    "desc": "Either the main BX barber shop or the mini-BX barber shop."
  },
  {
    "name": "Dry Cleaning",
    "tel": "228-207-4967",
    "hours": [
      "13:00 - 19:00",
      "13:00 - 19:00",
      "13:00 - 19:00",
      "13:00 - 19:00",
      "13:00 - 19:00",
      "10:00 - 14:00",
      "CLOSED"
    ]
  },
  {
    "name": "Fishbowl (Levitow)",
    "tel": "228-376-2331",
    "desc": "A commons area at the Levitow which can be used for studying, or relaxing after the duty day. Some things provided at the Levitow Fishbowl include video games, televisions (TV), music rooms, and a full kitchen.<br>On CWS Fridays, hours of operation is: 13:00 - 23:00",
    "hours": [
      "18:30 - 21:00",
      "18:30 - 21:00",
      "18:30 - 21:00",
      "18:30 - 21:00",
      "18:30 - 23:00",
      "10:00 - 23:00",
      "13:00 - 17:00"
    ]
  },
  {
    "name": "Vandenberg",
    "tel": "228-377-3308",
    "hours": [
      "12:00 - 21:00",
      "12:00 - 21:00",
      "12:00 - 21:00",
      "12:00 - 21:00",
      "09:00 - 18:00",
      "09:00 - 18:00",
      "CLOSED"
    ]
  },
  {
    "name": "Vandenberg: Club",
    "tel": "228-377-2424",
    "hours": [
      "CLOSED",
      "CLOSED",
      "CLOSED",
      "CLOSED",
      "18:00 - 00:00",
      "18:00 - 00:00"
    ]
  },
  {
    "name": "Post Office",
    "tel": "228-377-2289",
    "hours": [
      "11:40 - 15:00 / 15:30 - 18:10",
      "11:40 - 15:00 / 15:30 - 18:10",
      "11:40 - 15:00 / 15:30 - 18:10",
      "11:40 - 15:00 / 15:30 - 18:10",
      "11:40 - 15:00 / 15:30 - 18:10"
    ]
  },
  {
    "name": "Post Office Package Pickup",
    "desc": "Hours on CWS Friday: 12:00 - 15:00",
    "hours": [
      "13:00 - 18:30",
      "13:00 - 18:30",
      "13:00 - 18:30",
      "13:00 - 18:30",
      "13:00 - 18:30",
      "11:00 - 13:00",
      "CLOSED"
    ]
  },
  {
    "name": "Triangle Fitness Center",
    "tel": "228-377-3468",
    "desc": "Triangle Gym.<br>CWS Friday Hours: 12:00-18:00",
    "hours": [
      "04:00 - 21:00",
      "04:00 - 21:00",
      "04:00 - 21:00",
      "04:00 - 21:00",
      "04:00 - 21:00",
      "12:00 - 18:00",
      "12:00 - 18:00"
    ]
  },
  {
    "name": "Triangle Clinic",
    "tel": "228-376-0324"
  },
  {
    "name": "Immunizations",
    "tel": "228-376-3553"
  },
  {
    "name": "ENT Clinic",
    "tel": "228-376-0421"
  },
  {
    "name": "Dental",
    "tel": "228-376-0512"
  },
  {
    "name": "GI Clinic",
    "tel": "228-376-3835"
  },
  {
    "name": "Neurology",
    "tel": "228-376-3791"
  },
  {
    "name": "BOMC",
    "tel": "228-376-3163"
  },
  {
    "name": "Orthopedics",
    "tel": "228-376-0428"
  },
  {
    "name": "Chiropractic",
    "tel": "228-376-3412"
  },
  {
    "name": "Referral Management",
    "tel": "228-376-0490"
  },
  {
    "name": "Dermatology",
    "tel": "228-376-3501"
  },
  {
    "name": "Optometry",
    "tel": "228-376-0449"
  },
  {
    "name": "Hematology",
    "tel": "228-376-3845"
  },
  {
    "name": "Mental Health",
    "tel": "228-376-0385"
  },
  {
    "name": "Lab",
    "tel": "228-376-4435"
  },
  {
    "name": "Urology",
    "tel": "228-376-0456"
  },
  {
    "name": "CT scan",
    "tel": "228-376-4809"
  },
  {
    "name": "Cardiology",
    "tel": "228-376-3490"
  },
  {
    "name": "Endocrinology",
    "tel": "228-376-3887"
  },
  {
    "name": "Pulmonology",
    "tel": "228-376-5566"
  },
  {
    "name": "BHOP",
    "tel": "228-376-3761"
  },
  {
    "name": "General Surgery",
    "tel": "228-376-0425"
  },
  {
    "name": "Women's Health",
    "tel": "228-376-0433"
  },
  {
    "name": "Public Health",
    "tel": "228-376-3163"
  },
  {
    "name": "Physical Therapy",
    "tel": "228-376-0446"
  },
  {
    "name": "Radiology (X-ray)",
    "tel": "228-376-0481"
  },
  {
    "name": "Base Taxi",
    "tel": "228-377-2432"
  },
  {
    "name": "Pharmacy",
    "tel": "228-377-9791"
  }
]
